[
  {
    "id": 1,
    "name": "Leeuwenbergh",
    "lat": 52.08786494941877,
    "lon": 5.127657538406204,
    "team": "none",
    "first_captured": false,
    "locked": false,
    "information": "-",
    "image": "leeuwenbergh.jpg",
    "first_captured_by": null,
    "capture_count": 0
  },
  {
    "id": 2,
    "name": "Duke of Tokyo",
    "lat": 52.0920430192948,
    "lon": 5.118988960167675,
    "team": "none",
    "first_captured": false,
    "locked": false,
    "information": "Zoek een straatmuzikant.",
    "image": "duke_of_tokyo.jpg"
  },
  {
    "id": 3,
    "name": "Kaf\u00e9 Belgi\u00eb",
    "lat": 52.089002539917665,
    "lon": 5.121410503234041,
    "team": "none",
    "first_captured": false,
    "locked": false,
    "information": "Zoek een straatmuzikant.",
    "image": "kafe_belgie.jpg",
    "first_captured_by": null,
    "capture_count": 0
  },
  {
    "id": 4,
    "name": "Twintig Twintig",
    "lat": 52.09237118057648,
    "lon": 5.1194923737573825,
    "team": "none",
    "first_captured": false,
    "locked": false,
    "information": "Zoek een straatmuzikant.",
    "image": "twintig_twintig.jpg",
    "first_captured_by": null,
    "capture_count": 1
  },
  {
    "id": 5,
    "name": "Kartoffel",
    "lat": 52.0914701194954,
    "lon": 5.117837085914687,
    "team": "none",
    "first_captured": false,
    "locked": false,
    "information": "Zoek een straatmuzikant.",
    "image": "kartoffel.jpg"
  },
  {
    "id": 6,
    "name": "Restaurant San Siro",
    "lat": 52.09163782712417,
    "lon": 5.120428564875876,
    "team": "none",
    "first_captured": false,
    "locked": false,
    "information": "Zoek een straatmuzikant.",
    "image": "restaurant_san_siro.jpg",
    "first_captured_by": null,
    "capture_count": 1
  },
  {
    "id": 7,
    "name": "College voor de rechten van de mens",
    "lat": 52.09795604680639,
    "lon": 5.127634569096338,
    "team": "none",
    "first_captured": false,
    "locked": false,
    "information": "Zoek een straatmuzikant.",
    "image": "cvdrvdm.jpg"
  },
  {
    "id": 8,
    "name": "Smakkelaarsveld",
    "lat": 52.09212824381932,
    "lon": 5.110256078791378,
    "team": "none",
    "first_captured": false,
    "locked": false,
    "information": "Zoek een straatmuzikant.",
    "image": "smakkelaarsveld.jpg"
  },
  {
    "id": 9,
    "name": "Kringloop de Arm",
    "lat": 52.08715910813125,
    "lon": 5.121611393922906,
    "team": "none",
    "first_captured": false,
    "locked": false,
    "information": "Zoek een straatmuzikant.",
    "image": "kringloop_de_arm.jpg"
  },
  {
    "id": 10,
    "name": "Nicolaikerk",
    "lat": 52.08320384942813,
    "lon": 5.125349671931099,
    "team": "none",
    "first_captured": false,
    "locked": false,
    "information": "Zoek een straatmuzikant.",
    "image": "nicolaikerk.jpg"
  },
  {
    "id": 11,
    "name": "Grillroom Sphinx",
    "lat": 52.09507804486261,
    "lon": 5.1288578389907356,
    "team": "none",
    "first_captured": false,
    "locked": false,
    "information": "Zoek een straatmuzikant.",
    "image": "grillroom_sphinx.jpg",
    "first_captured_by": null
  },
  {
    "id": 12,
    "name": "Apotheek Koert\ud83d\udc8a",
    "lat": 52.09544289634492,
    "lon": 5.131344842232669,
    "team": "none",
    "first_captured": false,
    "locked": false,
    "information": "Deze locatie bevat een power-up.",
    "image": "apotheek_koert.jpg",
    "first_captured_by": null
  },
  {
    "id": 13,
    "name": "L\u00e9o L\u00e9o",
    "lat": 52.08206072813856,
    "lon": 5.123883584418086,
    "team": "none",
    "first_captured": false,
    "locked": false,
    "information": "Zoek een straatmuzikant.",
    "image": "leo_leo.jpg"
  },
  {
    "id": 14,
    "name": "Persepolis",
    "lat": 52.08240595124832,
    "lon": 5.123449437654406,
    "team": "none",
    "first_captured": false,
    "locked": false,
    "information": "Zoek een straatmuzikant.",
    "image": "persepolis.jpg"
  },
  {
    "id": 15,
    "name": "Restaurant Sevilla",
    "lat": 52.09227606320756,
    "lon": 5.122274693794732,
    "team": "none",
    "first_captured": false,
    "locked": false,
    "information": "Zoek een straatmuzikant.",
    "image": "restaurant_sevilla.jpg"
  },
  {
    "id": 16,
    "name": "The lekker store",
    "lat": 52.090761387377384,
    "lon": 5.118624422635546,
    "team": "none",
    "first_captured": false,
    "locked": false,
    "information": "Zoek een straatmuzikant.",
    "image": "the_lekker_lekker_store.jpg"
  },
  {
    "id": 17,
    "name": "Park Lepelenburg",
    "lat": 52.08948354239445,
    "lon": 5.128287824046733,
    "team": "none",
    "first_captured": false,
    "locked": false,
    "information": "Zoek een straatmuzikant.",
    "image": "park_lepelenburg.jpg",
    "first_captured_by": null,
    "capture_count": 0
  },
  {
    "id": 18,
    "name": "Mick'O Connells",
    "lat": 52.09255379420059,
    "lon": 5.122670627116155,
    "team": "none",
    "first_captured": false,
    "locked": false,
    "information": "Zoek een straatmuzikant.",
    "image": "mick_o_connells.jpg"
  },
  {
    "id": 19,
    "name": "Sonnenborgh & Sterrenwacht",
    "lat": 52.08541507583056,
    "lon": 5.129318332852796,
    "team": "none",
    "first_captured": false,
    "locked": false,
    "information": "Zoek een straatmuzikant.",
    "image": "sonnenborgh.jpg"
  },
  {
    "id": 20,
    "name": "Paardenveld",
    "lat": 52.09450785325501,
    "lon": 5.110759652169658,
    "team": "none",
    "first_captured": false,
    "locked": false,
    "information": "Zoek een straatmuzikant.",
    "image": "paardenveld.jpg",
    "first_captured_by": null
  },
  {
    "id": 21,
    "name": "Lebowski",
    "lat": 52.0906756513598,
    "lon": 5.120892790878399,
    "team": "none",
    "first_captured": false,
    "locked": false,
    "information": "Zoek een straatmuzikant.",
    "image": "lebowski.jpg"
  },
  {
    "id": 22,
    "name": "Spoorwegmuseum",
    "lat": 52.08799585831675,
    "lon": 5.130982697756828,
    "team": "none",
    "first_captured": false,
    "locked": false,
    "information": "Zoek een straatmuzikant.",
    "image": "spoorwegmuseum.jpg",
    "first_captured_by": null,
    "capture_count": 0
  },
  {
    "id": 23,
    "name": "Caf\u00e9 Le Journal",
    "lat": 52.09276990552718,
    "lon": 5.118702692320174,
    "team": "none",
    "first_captured": false,
    "locked": false,
    "information": "Zoek een straatmuzikant.",
    "image": "cafe_le_journal.jpg",
    "first_captured_by": null
  },
  {
    "id": 24,
    "name": "Pannakooi Asch van Wijckskade",
    "lat": 52.09616598654394,
    "lon": 5.120141559853096,
    "team": "none",
    "first_captured": false,
    "locked": false,
    "information": "Zoek een straatmuzikant.",
    "image": "pannakooi_asch_van_wijckskade.jpg"
  },
  {
    "id": 25,
    "name": "Number Nine",
    "lat": 52.094725062089005,
    "lon": 5.1200829080059975,
    "team": "none",
    "first_captured": false,
    "locked": false,
    "information": "Zoek een straatmuzikant.",
    "image": "number_nine.jpg",
    "first_captured_by": null,
    "capture_count": 3
  },
  {
    "id": 26,
    "name": "Massawa Ethiopian & Eritrean Restaurant",
    "lat": 52.09594774508338,
    "lon": 5.107979416322375,
    "team": "none",
    "first_captured": false,
    "locked": false,
    "information": "Deze locatie bevat een power-up.",
    "image": "massawa_ethiopian_and_eritrean_restaurant.jpg",
    "first_captured_by": null
  },
  {
    "id": 27,
    "name": "De Singel",
    "lat": 52.08599182581827,
    "lon": 5.11858659436387,
    "team": "none",
    "first_captured": false,
    "locked": false,
    "information": "Zoek een straatmuzikant.",
    "image": "de_singel.jpg",
    "first_captured_by": null,
    "capture_count": 0
  },
  {
    "id": 28,
    "name": "Volksbuurtmuseum",
    "lat": 52.095237796855926,
    "lon": 5.114629492601267,
    "team": "none",
    "first_captured": false,
    "locked": false,
    "information": "Zoek een straatmuzikant.",
    "image": "volksbuurtmuseum.jpg"
  }
]